City_ID,City,Lat,Lng,Max Temp,Humidity,Cloudiness,Wind Speed,Country,Date
0,waitangi,-43.9535,-176.5597,11.57,92,97,1.79,NZ,1686614204
1,edinburgh of the seven seas,-37.0676,-12.3116,15.23,93,100,9.2,SH,1686614205
2,yellowknife,62.456,-114.3525,9.29,57,75,7.2,CA,1686614205
3,bethel,41.3712,-73.414,20.93,87,100,5.14,US,1686614018
4,la'ie,21.6477,-157.9253,31.98,68,43,2.68,US,1686614205
5,inhambane,-23.865,35.3833,20.01,89,2,4.43,MZ,1686614206
6,utrik,11.2278,169.8474,27.61,81,67,8.55,MH,1686613924
7,hawaiian paradise park,19.5933,-154.9731,28.73,62,20,3.6,US,1686614206
8,papatowai,-46.5619,169.4708,10.91,84,87,3.08,NZ,1686613926
9,hotan,37.0997,79.9269,26.03,23,36,3.08,CN,1686614207
10,mersing,2.4312,103.8405,23.95,94,20,2.57,MY,1686614207
11,mombetsu,44.3525,143.3525,17.37,79,100,2.29,JP,1686614207
12,archangelos,36.2149,28.1149,21.28,78,3,2.9,GR,1686614208
13,port-aux-francais,-49.35,70.2167,6.37,91,100,13.99,TF,1686614208
14,adamstown,-25.066,-130.1015,20.25,64,14,2.83,PN,1686613917
15,uvira,-3.4067,29.1458,23.49,71,41,0.83,CD,1686614208
16,east london,-33.0153,27.9116,13.85,70,81,4.88,ZA,1686614209
17,hilo,19.7297,-155.09,28.85,61,20,4.02,US,1686613941
18,mandvi,22.8333,69.3667,29.35,76,100,11.75,IN,1686614209
19,badger,64.8,-147.5333,17.78,38,75,5.66,US,1686613936
20,avarua,-21.2078,-159.775,26.03,83,40,5.14,CK,1686614210
21,salalah,17.0151,54.0924,28.43,87,100,2.44,OM,1686614210
22,balpyk bi,44.8947,78.2083,18.47,36,100,1.87,KZ,1686614210
23,new norfolk,-42.7826,147.0587,8.72,79,90,0.89,AU,1686614210
24,remire-montjoly,4.9167,-52.2667,27.02,83,20,2.06,GF,1686614211
25,georgetown,5.4112,100.3354,28.96,79,20,3.09,MY,1686614211
26,touros,-5.1989,-35.4608,24.72,86,3,4.63,BR,1686614211
27,sona,45.4388,10.8255,20.99,88,40,1.54,IT,1686614211
28,lebu,-37.6167,-73.65,8.66,77,0,6.54,CL,1686614212
29,codrington,-38.2667,141.9667,11.08,85,62,6.67,AU,1686614212
30,moranbah,-22.0016,148.0466,22.45,55,100,2.81,AU,1686614212
31,whitehorse,60.7161,-135.0538,16.43,21,40,8.23,CA,1686613940
32,pasni,25.2631,63.471,29.52,72,100,1.5,PK,1686614212
33,penzance,50.1186,-5.5371,15.38,90,9,3.55,GB,1686614213
34,haiku-pauwela,20.9219,-156.3051,29.01,51,40,7.72,US,1686614213
35,iqaluit,63.7506,-68.5145,2.85,60,100,7.2,CA,1686614213
36,college,64.8569,-147.8028,17.83,40,75,5.66,US,1686614214
37,kolonia,50.9333,6.95,20.13,48,0,2.06,DE,1686614214
38,port mathurin,-19.6833,63.4167,24.64,68,39,6.56,MU,1686614214
39,kayangel,8.0823,134.7173,27.87,76,97,3.48,PW,1686614047
40,lihue,21.9789,-159.3672,28.58,72,20,6.17,US,1686614215
41,feijo,-8.1642,-70.3536,23.13,97,22,0.71,BR,1686614215
42,stanley,54.868,-1.6985,12.63,91,67,0.51,GB,1686613975
43,al jawf,29.5,38.75,25.42,28,0,2.9,SA,1686614215
44,piacabucu,-10.4056,-36.4344,24.19,88,13,3.88,BR,1686614215
45,maxixe,-23.8597,35.3472,19.24,91,2,3.87,MZ,1686614216
46,vallenar,-28.5708,-70.7581,10.77,76,0,1.02,CL,1686614216
47,chonchi,-42.6128,-73.8092,3.95,95,15,0.98,CL,1686614216
48,hasaki,35.7333,140.8333,23.45,94,99,7.77,JP,1686614217
49,tsiombe,-25.3,45.4833,17.72,97,20,2.06,MG,1686614217
50,invercargill,-46.4,168.35,10.57,90,98,2.24,NZ,1686613921
51,kolosovka,56.4678,73.611,8.99,67,99,2.03,RU,1686614217
52,labrador city,52.9463,-66.9114,18.95,32,20,2.06,CA,1686614218
53,isangel,-19.55,169.2667,21.06,94,100,1.03,VU,1686614218
54,agra,27.1833,78.0167,34.83,31,2,4.2,IN,1686614218
55,ilulissat,69.2167,-51.1,3.01,65,75,4.63,GL,1686613968
56,uzgen,40.7699,73.3007,17.68,77,100,2.57,KG,1686614219
57,queenstown,-31.8976,26.8753,8.23,54,89,7.25,ZA,1686614012
58,vila franca do campo,37.7167,-25.4333,19.23,98,100,5.61,PT,1686614064
59,vorgashor,67.5833,63.95,4.56,60,97,4.26,RU,1686614219
60,la ronge,55.1001,-105.2842,22.12,40,100,3.6,CA,1686613950
61,hermanus,-34.4187,19.2345,15.45,85,100,12.4,ZA,1686614220
62,zaozersk,69.4005,32.4476,9.37,70,100,3.13,RU,1686614220
63,aasiaat,68.7098,-52.8699,0.5,82,61,7.71,GL,1686614220
64,uturoa,-16.7333,-151.4333,27.25,69,5,7.73,PF,1686614220
65,tiksi,71.6872,128.8694,1.96,95,80,1.38,RU,1686614221
66,longyearbyen,78.2186,15.6401,1.91,93,75,4.12,SJ,1686614221
67,xinqing,48.2333,129.5,20.68,58,53,1.68,CN,1686614221
68,howrah,22.5892,88.3103,28.0,94,40,1.54,IN,1686614018
69,chake chake,-5.2459,39.7666,24.06,76,1,4.2,TZ,1686614222
70,minas de marcona,-15.2119,-75.1103,12.42,85,48,8.34,PE,1686614222
71,srikakulam,18.3,83.9,30.72,54,83,2.7,IN,1686614222
72,polovinnoye,54.7914,65.9864,8.88,58,100,2.85,RU,1686614223
73,olonkinbyen,70.9221,-8.7187,1.52,89,99,8.46,SJ,1686614223
74,fraga,41.5229,0.3489,20.46,66,88,1.1,ES,1686614223
75,carnarvon,-24.8667,113.6333,14.13,46,0,7.01,AU,1686614223
76,inarajan village,13.2736,144.7484,29.11,81,42,7.49,GU,1686614224
77,keflavik,64.0049,-22.5624,8.95,81,20,1.03,IS,1686614224
78,ben gardane,33.1378,11.2197,25.02,50,6,4.09,TN,1686614224
79,port elizabeth,-33.918,25.5701,14.16,70,0,6.69,ZA,1686613925
80,richards bay,-28.783,32.0377,16.25,90,46,2.06,ZA,1686614225
81,asaita,11.5636,41.4394,33.18,37,97,3.6,ET,1686614225
82,raduzhny,62.0961,77.475,2.92,96,100,4.95,RU,1686614225
83,jamestown,42.097,-79.2353,13.77,80,100,5.66,US,1686614226
84,ancud,-41.8697,-73.8203,5.43,86,9,1.97,CL,1686614226
85,vilyuchinsk,52.9306,158.4028,22.15,49,0,2.28,RU,1686613973
86,pemangkat,1.1667,108.9667,26.7,82,93,2.14,ID,1686614226
87,novodvinsk,64.4165,40.8122,13.34,57,91,4.07,RU,1686614227
88,trairi,-3.2778,-39.2689,25.41,83,3,4.23,BR,1686614146
89,belyy yar,53.6039,91.3903,12.94,88,0,0.0,RU,1686614227
90,selfoss,63.9331,-20.9971,7.8,79,31,2.64,IS,1686614227
91,agua prieta,31.3,-109.5667,30.44,8,0,9.77,MX,1686614228
92,bredasdorp,-34.5322,20.0403,13.46,69,100,10.78,ZA,1686614228
93,sierakowice,54.3461,17.8925,13.62,74,91,3.88,PL,1686614228
94,i-n-salah,27.1935,2.4607,34.81,8,0,4.44,DZ,1686614228
95,chernomorskoye,45.5039,32.6997,17.2,90,63,2.89,UA,1686614229
96,verkhniye kigi,55.4083,58.6044,3.69,78,53,1.85,RU,1686614229
97,namtsy,62.7161,129.6658,9.43,52,99,2.46,RU,1686614229
98,arraial do cabo,-22.9661,-42.0278,19.98,100,40,1.03,BR,1686614230
99,grand falls-windsor,48.9332,-55.6649,10.84,85,100,0.89,CA,1686614230
100,thakhek,17.4103,104.8307,26.06,96,100,1.82,LA,1686614230
101,puerto natales,-51.7236,-72.4875,1.66,95,92,2.08,CL,1686614230
102,st. john's,47.5649,-52.7093,7.76,92,100,6.69,CA,1686613957
103,ponta delgada,37.7333,-25.6667,19.4,100,75,5.66,PT,1686614231
104,acarau,-2.8856,-40.12,25.87,82,0,5.7,BR,1686614083
105,boa vista,2.8197,-60.6733,26.99,78,40,2.06,BR,1686614231
106,bilibino,68.0546,166.4372,11.97,91,100,3.77,RU,1686614232
107,mermoz boabab,14.7065,-17.4758,27.31,89,0,5.14,SN,1686614232
108,antonio enes,-16.2325,39.9086,21.99,80,0,1.94,MZ,1686614232
109,kharkhorin,47.1975,102.8238,19.77,45,86,2.06,MN,1686614232
110,kashgar,39.4547,75.9797,27.56,19,0,3.0,CN,1686614233
111,yokadouma,3.5167,15.05,20.89,99,100,1.02,CM,1686614233
112,albany,42.6001,-73.9662,24.4,56,99,1.34,US,1686613970
113,kruisfontein,-34.0033,24.7314,11.05,66,100,5.17,ZA,1686614233
114,okha,53.5739,142.9478,7.11,92,100,3.44,RU,1686614004
115,arvayheer,46.2639,102.775,18.85,27,74,1.83,MN,1686614234
116,kingscliff,-28.2667,153.5667,21.54,78,11,1.54,AU,1686614234
117,nova sintra,14.8667,-24.7167,21.57,84,68,6.46,CV,1686614234
118,porto novo,6.4965,2.6036,26.9,80,88,2.65,BJ,1686614235
119,natal,-5.795,-35.2094,25.36,94,20,2.57,BR,1686614019
120,udachny,66.4167,112.4,13.03,37,25,6.75,RU,1686614235
121,cabo san lucas,22.8909,-109.9124,32.32,52,0,4.53,MX,1686614235
122,bongouanou,6.6486,-4.1992,20.31,99,34,0.73,CI,1686614237
123,labuan,5.2767,115.2417,26.2,94,20,0.0,MY,1686614237
124,constantia,44.1833,28.65,13.38,81,58,7.48,RO,1686614238
125,nkove,-7.95,30.85,23.76,53,73,2.19,TZ,1686614238
126,grytviken,-54.2811,-36.5092,-1.58,93,77,3.58,GS,1686614238
127,colonia,50.9333,6.95,20.13,48,0,2.06,DE,1686614214
128,zemio,5.0314,25.1361,20.31,98,56,1.76,CF,1686614239
129,boquira,-12.8231,-42.7306,22.13,50,6,1.77,BR,1686614239
130,blackmans bay,-43.0167,147.3167,8.07,88,72,2.81,AU,1686614239
131,qamdo,31.1667,97.2333,3.61,90,100,0.81,CN,1686614239
132,mirny,62.5353,113.9611,11.8,40,4,0.89,RU,1686614240
133,sarangpur,23.5667,76.4667,29.83,57,88,5.73,IN,1686614240
134,kuvandyk,51.4781,57.3552,12.05,82,99,9.42,RU,1686614240
135,ribeira grande,38.5167,-28.7,19.32,100,75,3.6,PT,1686614241
136,kodiak,57.79,-152.4072,11.73,54,75,5.14,US,1686614241
137,pathein,16.7833,94.7333,25.43,94,100,3.81,MM,1686614241
138,sitka,57.0531,-135.33,12.94,62,75,6.17,US,1686614241
139,mugia,43.1041,-9.2179,17.73,91,100,2.64,ES,1686614242
140,punta arenas,-53.15,-70.9167,6.06,70,20,11.83,CL,1686614242
141,mpongwe,-13.5091,28.155,14.93,53,33,2.0,ZM,1686614242
142,margaret river,-33.95,115.0667,15.11,72,97,6.7,AU,1686614243
143,ushuaia,-54.8,-68.3,4.81,75,40,13.38,AR,1686614243
144,yarkovo,57.4028,67.0786,5.73,69,23,1.83,RU,1686614243
145,thompson,55.7435,-97.8558,24.15,35,9,3.55,CA,1686614243
146,sinabang,2.4803,96.3801,26.7,79,85,0.23,ID,1686614244
147,petropavlovsk-kamchatsky,53.0452,158.6483,21.33,37,0,1.0,RU,1686614244
148,dhidhdhoo,6.8833,73.1,28.8,78,88,8.33,MV,1686614244
149,vrede,-27.4257,29.1659,4.08,87,13,3.37,ZA,1686614245
150,tafuna,-14.3358,-170.72,27.8,77,34,7.69,AS,1686614245
151,ulladulla,-35.35,150.4667,15.63,60,71,4.69,AU,1686614245
152,nantucket,41.2835,-70.0995,21.08,88,100,6.17,US,1686613978
153,eastham,41.8301,-69.9739,20.09,77,40,3.09,US,1686614246
154,cacapava do sul,-30.5122,-53.4914,1.79,70,7,1.8,BR,1686614246
155,atafu village,-8.5421,-172.5159,28.7,75,51,6.4,TK,1686614246
156,meadow lakes,61.6247,-149.6011,12.62,70,100,1.54,US,1686614247
157,usogorsk,63.4106,48.6872,12.22,83,93,2.84,RU,1686614247
158,khandyga,62.6667,135.6,11.24,58,100,2.13,RU,1686614247
159,elko,41.0002,-115.5012,20.01,48,88,2.24,US,1686614247
160,sorong,-0.8833,131.25,26.36,82,98,1.96,ID,1686614137
161,oum hadjer,13.2954,19.6966,27.96,65,62,6.01,TD,1686614248
162,church hill,36.5223,-82.7135,22.43,70,94,3.91,US,1686614248
163,arba minch,6.0333,37.55,18.32,90,100,1.28,ET,1686614248
164,buulobarde,3.8538,45.5674,23.92,86,79,7.31,SO,1686614249
165,hithadhoo,-0.6,73.0833,28.61,71,77,3.92,MV,1686614249
166,abbeville,50.1,1.8333,13.47,89,45,1.31,FR,1686614249
167,enewetak,11.3474,162.3373,27.72,82,29,8.67,MH,1686613994
168,miringa,10.7312,12.1463,23.86,77,97,1.76,NG,1686614250
169,zhumadian,32.9794,114.0294,26.63,46,85,2.2,CN,1686614250
170,kratie,12.4881,106.0188,24.49,94,100,1.18,KH,1686614250
171,orsa,54.5153,30.4053,8.9,84,99,3.36,BY,1686614251
172,cafayate,-26.073,-65.9761,3.51,59,56,1.61,AR,1686614251
173,aykhal,66.0,111.5,12.15,43,20,7.36,RU,1686613980
174,kalmunai,7.4167,81.8167,26.32,83,95,3.26,LK,1686614029
175,faya-largeau,17.9257,19.1043,32.28,37,28,3.67,TD,1686614252
176,greenville,35.6127,-77.3663,22.97,96,100,3.6,US,1686614252
177,gadzhiyevo,69.2551,33.3362,9.8,79,100,5.3,RU,1686614252
178,kailua-kona,19.6406,-155.9956,27.98,86,40,5.14,US,1686614252
179,puerto ayacucho,5.6639,-67.6236,25.37,89,89,0.82,VE,1686614253
180,burao,9.5221,45.5336,23.54,62,85,8.04,SO,1686614253
181,flying fish cove,-10.4217,105.6791,25.82,88,100,4.63,CX,1686614253
182,port saint john's,-31.6229,29.5448,15.37,76,63,2.17,ZA,1686614253
183,koz'modem'yansk,56.3367,46.5711,5.82,84,0,2.38,RU,1686614254
184,marechal candido rondon,-24.5561,-54.0567,11.77,65,96,5.35,BR,1686613995
185,edson,53.5835,-116.4356,26.08,29,0,1.03,CA,1686614254
186,toliara,-23.35,43.6667,18.74,83,1,2.21,MG,1686614254
187,bodo,67.28,14.405,8.21,89,100,8.23,NO,1686614254
188,mata-utu,-13.2816,-176.1745,28.42,76,78,6.04,WF,1686614255
189,quiruvilca,-7.9667,-78.2,5.61,81,81,1.43,PE,1686614255
190,shimoda,34.6667,138.95,25.61,83,81,1.66,JP,1686614255
191,zhalantun,48.0,122.7167,25.28,40,13,2.15,CN,1686614255
192,ulsteinvik,62.3432,5.8487,14.99,78,100,0.72,NO,1686614256
193,nafada,11.0956,11.3327,29.54,58,88,3.41,NG,1686614256
194,anadyr,64.75,177.4833,15.28,51,0,4.0,RU,1686614257
195,akureyri,65.6835,-18.0878,9.96,71,0,3.6,IS,1686614257
196,castillos,-34.1667,-53.8333,8.28,76,53,3.44,UY,1686614257
197,polygyros,40.3744,23.4383,18.45,77,50,3.03,GR,1686614257
198,vadso,70.0744,29.7487,9.49,76,75,2.57,NO,1686614258
199,talnakh,69.4865,88.3972,7.34,91,99,2.51,RU,1686614258
200,khemisset,33.6667,-6.25,18.8,78,12,0.72,MA,1686614258
201,wailua homesteads,22.0669,-159.378,28.24,78,20,6.17,US,1686614259
202,kone,-21.0595,164.8658,25.93,46,3,1.63,NC,1686614259
203,ibipeba,-11.6408,-42.0111,20.44,62,0,2.98,BR,1686614259
204,saipan,15.1355,145.701,30.39,100,75,6.17,MP,1686614259
205,tsengel,49.4783,100.8894,17.86,71,86,2.34,MN,1686614260
206,port alfred,-33.5906,26.891,11.77,79,89,0.89,ZA,1686614260
207,isafjordur,66.0755,-23.124,8.52,77,5,3.53,IS,1686614260
208,egilsstadir,65.2653,-14.3948,9.95,66,0,4.12,IS,1686614260
209,puerto ayora,-0.7393,-90.3518,26.42,89,56,3.58,EC,1686614261
210,ust'-kulom,61.6864,53.6902,8.92,83,84,2.67,RU,1686614261
211,west island,-12.1568,96.8225,26.99,83,75,9.31,CC,1686614261
212,assare,-6.8744,-39.875,24.12,59,89,1.19,BR,1686614261
213,bahia de caraquez,-0.6,-80.4167,26.03,88,93,3.91,EC,1686614262
214,sokol,59.4617,40.1206,8.56,75,8,1.75,RU,1686614262
215,prince rupert,54.3161,-130.3201,15.05,80,75,6.17,CA,1686614208
216,luena,-11.7833,19.9167,16.1,63,9,1.03,AO,1686614263
217,lata,40.1629,-8.3327,16.37,98,43,1.5,PT,1686614263
218,el abiodh sidi cheikh,32.893,0.5484,24.22,44,30,9.09,DZ,1686614263
219,kapuskasing,49.4169,-82.4331,21.05,52,100,3.09,CA,1686614062
220,sala,34.0389,-6.8166,20.42,94,22,0.0,MA,1686614264
221,roja,57.5,22.8167,12.59,77,1,1.15,LV,1686614264
222,sao tome,0.3365,6.7273,25.6,82,99,2.45,ST,1686614264
223,moscow,55.7522,37.6156,10.1,69,1,2.62,RU,1686614028
224,kharagpur,22.3333,87.3333,30.5,73,99,2.33,IN,1686614265
225,iranshahr,27.2025,60.6848,32.99,17,50,0.31,IR,1686614265
226,ust-nera,64.5667,143.2,10.65,92,100,4.14,RU,1686614265
227,sur,22.5667,59.5289,32.33,50,100,1.2,OM,1686614265
228,viale,-31.8678,-60.0072,5.15,57,21,3.42,AR,1686614266
229,kampung sungai ara,5.327,100.2735,28.95,74,20,3.09,MY,1686614266
230,port lincoln,-34.7333,135.8667,13.77,62,77,10.06,AU,1686613976
231,naberera,-4.2,36.9333,13.66,96,32,2.04,TZ,1686614266
232,farasan,16.7022,42.1183,33.02,65,100,12.13,SA,1686614267
233,upington,-28.4478,21.2561,6.21,65,0,2.06,ZA,1686614267
234,ostersund,63.1792,14.6357,13.12,37,20,5.66,SE,1686614267
235,benemerito de las americas,16.5167,-90.6439,34.94,38,30,0.22,MX,1686614267
236,gombi,10.1614,12.7399,22.58,85,99,1.31,NG,1686614268
237,williston,48.147,-103.618,26.56,32,100,0.45,US,1686614269
238,ola,59.5833,151.2833,17.86,91,98,5.11,RU,1686614269
239,bonthe,7.5264,-12.505,24.86,89,100,2.23,SL,1686614270
240,happy valley-goose bay,53.3168,-60.3315,18.17,45,100,2.06,CA,1686614270
241,delafield,43.0608,-88.4037,18.73,55,80,3.55,US,1686614270
242,pangai,-19.8,-174.35,23.06,88,100,4.12,TO,1686614270
243,baramati,18.15,74.5833,25.32,72,78,5.55,IN,1686614271
244,balkashino,52.5167,68.7667,11.46,61,88,2.77,KZ,1686614271
245,cape coast,5.1053,-1.2466,25.26,73,10,3.9,GH,1686614271
246,newport,51.5877,-2.9984,19.18,88,89,1.2,GB,1686614271
247,vorkuta,67.5,64.0,4.58,61,98,4.33,RU,1686614272
248,luderitz,-26.6481,15.1594,12.87,82,0,4.3,NA,1686614272
249,brookings,44.3114,-96.7984,24.5,37,20,5.14,US,1686614272
250,saurimo,-9.6608,20.3916,16.56,41,3,1.61,AO,1686614272
251,fort leonard wood,37.7057,-92.1572,23.43,42,0,2.68,US,1686614273
252,pisco,-13.7,-76.2167,21.03,73,1,9.77,PE,1686614273
253,peace river,56.2501,-117.286,25.17,41,75,4.63,CA,1686614273
254,filingue,14.3521,3.3168,28.74,60,92,2.92,NE,1686614274
255,port hedland,-20.3167,118.5667,16.03,48,75,1.54,AU,1686614274
256,turner,44.2565,-70.2562,21.36,82,98,2.36,US,1686614274
257,abu jibeha,11.4562,31.2285,27.73,60,72,1.95,SD,1686614274
258,cobram,-35.9167,145.65,10.41,84,70,4.03,AU,1686614275
259,lockwood,45.8191,-108.4149,25.23,54,75,4.47,US,1686614275
260,palikir - national government center,6.9248,158.1611,30.47,74,100,5.14,FM,1686614069
261,hamilton,39.1834,-84.5333,19.52,60,75,6.69,US,1686614275
262,ceres,37.5949,-120.9577,29.18,44,40,3.09,US,1686614276
263,yuzhno-kurilsk,44.0306,145.8556,11.78,97,100,4.0,RU,1686614276
264,araguari,-18.6472,-48.1872,23.16,40,80,2.17,BR,1686614052
265,praia da vitoria,38.7333,-27.0667,21.14,88,20,2.93,PT,1686614276
266,atbara,17.7022,33.9864,35.22,18,98,3.2,SD,1686614277
267,beyneu,45.3167,55.2,25.32,20,71,4.08,KZ,1686614277
268,ghat,24.9647,10.1728,31.17,16,4,1.47,LY,1686614277
269,ta`u,-14.2336,-169.5144,27.92,71,55,7.52,AS,1686614277
270,beloyarskiy,63.7119,66.6722,4.34,67,24,1.95,RU,1686614278
271,pajok,3.8651,32.4821,18.66,92,38,1.49,SS,1686614278
272,rawson,-43.3002,-65.1023,7.17,50,41,3.61,AR,1686614278
273,ahmadpur,18.7,76.9333,27.38,61,12,5.47,IN,1686614279
274,puerto baquerizo moreno,-0.9,-89.6,26.55,83,40,6.69,EC,1686614279
275,sochi,43.6,39.7303,20.05,88,100,0.34,RU,1686614097
276,polyarnyy,69.1989,33.4478,10.6,80,100,4.91,RU,1686614279
277,qaqortoq,60.7167,-46.0333,6.55,74,100,2.58,GL,1686614280
278,sibolga,1.7427,98.7792,25.1,87,27,1.56,ID,1686614280
279,upata,8.0086,-62.3989,23.15,93,99,1.54,VE,1686614280
280,afaahiti,-17.75,-149.2833,27.93,66,50,8.51,PF,1686614280
281,island harbour,50.724,-1.2758,17.96,92,47,0.45,GB,1686614281
282,nemuro,43.3236,145.575,12.23,97,100,4.93,JP,1686614281
283,ndele,8.4109,20.6473,21.96,94,62,1.82,CF,1686614281
284,sampit,-2.5333,112.95,24.69,94,99,0.97,ID,1686614281
285,iskateley,67.6803,53.1512,7.12,87,70,4.47,RU,1686614282
286,takahashi,34.7833,133.6167,26.14,77,100,0.89,JP,1686614282
287,marka,1.7159,44.7717,25.69,86,98,7.29,SO,1686614282
288,mogocha,53.7333,119.7667,7.72,93,96,4.28,RU,1686614282
289,yelizovo,53.1873,158.3805,22.08,37,0,1.0,RU,1686614283
290,genhe,50.7833,121.5167,23.64,44,100,1.48,CN,1686614283
291,tangalle,6.024,80.7911,26.5,84,99,5.42,LK,1686614283
292,tralee,52.2704,-9.7026,14.09,96,63,1.08,IE,1686614284
293,nagqu,31.5,92.0,5.97,75,100,3.93,CN,1686614284
294,cabedelo,-6.9811,-34.8339,24.37,85,7,5.28,BR,1686614284
295,picos,-7.0769,-41.4669,22.65,71,8,1.02,BR,1686614284
296,fort st. john,56.2499,-120.8529,23.94,35,100,6.69,CA,1686614285
297,yen vinh,18.6667,105.6667,29.01,71,100,2.56,VN,1686614285
298,rikaze,29.25,88.8833,12.44,52,87,2.14,CN,1686614285
299,urengoy,65.9667,78.3667,2.99,70,96,8.11,RU,1686614286
300,mawu,29.5923,107.3139,21.68,77,75,0.3,CN,1686614286
301,justo daract,-33.8594,-65.1828,4.79,36,0,1.49,AR,1686614286
302,lazaro cardenas,17.9583,-102.2,29.76,61,7,5.26,MX,1686614286
303,noumea,-22.2763,166.4572,23.99,99,0,4.1,NC,1686614257
304,kilindoni,-7.9139,39.6668,26.26,63,1,6.24,TZ,1686614287
305,nadym,65.5333,72.5167,1.36,72,55,6.36,RU,1686614231
306,fort bragg,35.139,-79.006,26.57,80,100,3.09,US,1686614288
307,turkan,40.3639,50.215,24.1,73,0,1.03,AZ,1686614288
308,karratha,-20.7377,116.8463,19.06,39,2,8.38,AU,1686614288
309,zahedan,29.4963,60.8629,23.95,23,0,2.06,IR,1686614288
310,arar,30.9753,41.0381,28.01,18,0,5.66,SA,1686614289
311,waingapu,-9.6567,120.2641,25.5,72,21,5.99,ID,1686614289
312,demopolis,32.5176,-87.8364,25.97,69,75,0.0,US,1686614289
313,laojunmiao,39.8333,97.7333,21.03,21,0,3.67,CN,1686614290
314,awjilah,29.1081,21.2869,24.97,51,0,6.7,LY,1686614290
315,cockburn town,21.4612,-71.1419,28.08,84,44,9.46,TC,1686614290
316,bamboo flat,11.7,92.7167,26.05,89,75,3.09,IN,1686614035
317,la passe,45.5549,-0.8967,19.43,91,100,3.11,FR,1686614291
318,najaf,31.9985,44.3398,34.13,19,41,1.91,IQ,1686614291
319,camalu,30.85,-116.0667,18.89,70,1,7.08,MX,1686614291
320,san sebastian de la gomera,28.0916,-17.1133,23.54,83,0,2.57,ES,1686614292
321,hadibu,12.65,54.0333,28.13,79,100,9.37,YE,1686614292
322,bereznik,62.8551,42.7072,14.8,60,100,3.39,RU,1686614292
323,hammamet,36.4,10.6167,21.92,67,64,2.72,TN,1686614292
324,coquimbo,-29.9533,-71.3436,10.85,81,40,2.57,CL,1686614169
325,canutama,-6.5339,-64.3831,26.64,77,98,0.53,BR,1686614293
326,hailin,44.5833,129.4167,19.33,68,9,0.23,CN,1686614293
327,digri,25.1558,69.1113,31.1,61,95,6.45,PK,1686614294
328,pacific grove,36.6177,-121.9166,20.79,76,20,8.75,US,1686614229
329,weno,7.4515,151.8468,29.06,78,81,8.06,FM,1686614294
330,ratnagiri,16.9833,73.3,27.97,81,58,6.98,IN,1686614295
331,madang,-5.2246,145.7966,29.17,74,93,0.61,PG,1686614295
332,hojai,26.0,92.8667,25.16,93,43,0.81,IN,1686614295
333,sierra grande,-41.606,-65.3557,6.61,34,1,1.79,AR,1686614296
334,mejit,10.2753,170.8646,27.98,79,40,8.6,MH,1686614296
335,kolobrzeg,54.1757,15.5834,15.08,52,26,4.7,PL,1686614296
336,san matias,-16.3667,-58.4,13.6,79,100,3.97,BO,1686614296
337,nolinsk,57.5596,49.9363,6.43,77,3,0.48,RU,1686614297
338,yonggwang-up,40.0183,127.4547,19.39,72,100,1.39,KP,1686614297
339,sao sepe,-30.1606,-53.5653,4.55,66,10,2.36,BR,1686614211
340,port said,31.2565,32.2841,22.99,88,0,2.06,EG,1686614298
341,pecos,31.4229,-103.4932,39.58,8,0,5.14,US,1686614157
342,sao vicente,-23.9631,-46.3919,23.1,26,95,0.45,BR,1686614298
343,ketchikan,55.3422,-131.6461,16.26,67,40,6.17,US,1686614167
344,san antonio de pale,-1.4014,5.6325,24.39,90,78,3.32,GQ,1686614299
345,huilong,31.8111,121.655,23.04,83,99,2.64,CN,1686614299
346,necochea,-38.5473,-58.7368,9.39,68,97,4.48,AR,1686614299
347,fada,9.5667,8.3,20.57,94,91,1.16,NG,1686614080
348,ornskoldsvik,63.2909,18.7153,9.53,87,100,2.06,SE,1686614300
349,north bend,43.4065,-124.2243,24.02,77,75,7.2,US,1686614300
350,holualoa,19.6228,-155.9522,25.91,86,40,5.14,US,1686614300
351,tenenkou,14.4572,-4.9169,28.15,57,100,4.93,ML,1686614301
352,anloga,5.7947,0.8973,26.32,70,16,5.57,GH,1686614301
353,lompoc,34.6391,-120.4579,22.08,77,100,4.47,US,1686614160
354,alofi,-19.0595,-169.9187,23.94,94,100,1.03,NU,1686614301
355,launceston,-41.45,147.1667,12.8,89,100,3.09,AU,1686614233
356,santa luzia,-19.7697,-43.8514,22.6,57,0,3.09,BR,1686614302
357,gwadar,25.1216,62.3254,29.51,72,100,1.45,PK,1686614302
358,tofol,5.3248,163.0078,28.88,74,100,5.14,FM,1686614302
359,opuwo,-18.0607,13.84,11.96,16,10,2.61,NA,1686614303
360,lander,42.833,-108.7307,18.95,82,100,3.09,US,1686614166
361,manggar,-2.8833,108.2667,28.06,82,75,6.43,ID,1686614303
362,kralendijk,12.15,-68.2667,28.99,74,40,7.72,BQ,1686614030
363,alta,69.9689,23.2717,10.59,59,100,7.2,NO,1686614304
364,kidal,18.4411,1.4078,31.64,36,27,2.34,ML,1686614304
365,chibougamau,49.9168,-74.3659,24.79,36,0,3.09,CA,1686614304
366,es castell,39.8795,4.2854,22.38,94,40,3.6,ES,1686614305
367,bosobolo,4.1833,19.9,20.99,95,78,1.03,CD,1686614305
368,mushie,-3.0167,16.9,22.25,95,83,1.39,CD,1686614305
369,altus,34.6381,-99.334,20.92,76,100,5.14,US,1686614121
370,agadez,19.75,10.25,31.91,31,0,4.91,NE,1686614306
371,afif,23.9065,42.9172,26.88,25,20,5.94,SA,1686614306
372,choibalsan,48.0667,114.5,24.47,32,51,4.56,MN,1686614088
373,lerwick,60.1545,-1.1494,12.0,94,76,3.08,GB,1686614307
374,fuxin,42.0156,121.6589,19.94,61,56,2.14,CN,1686614307
375,jamtara,23.95,86.8,29.99,68,20,3.57,IN,1686614307
376,palmer,42.1584,-72.3287,23.23,63,100,2.68,US,1686614307
377,yardimli,38.9206,48.2372,18.84,63,8,1.33,AZ,1686614308
378,laminusa,5.5549,120.9136,28.8,75,34,3.09,PH,1686614308
379,eraan,9.0629,117.7016,28.35,76,100,0.9,PH,1686614308
380,aitape,-3.1374,142.3475,27.95,79,100,0.47,PG,1686614308
381,orchard mesa,39.043,-108.5523,27.36,18,75,8.75,US,1686614309
382,santyoku,37.4406,129.1708,20.61,75,50,0.98,KR,1686614309
383,la sarre,48.8002,-79.1996,15.72,84,100,1.62,CA,1686614309
384,dunedin,-45.8742,170.5036,12.11,65,98,2.24,NZ,1686614310
385,claremore,36.3126,-95.6161,24.78,63,0,0.0,US,1686614150
386,gornozavodsk,58.3758,58.3211,2.25,83,6,0.57,RU,1686614310
387,rio grande,-32.035,-52.0986,5.06,61,1,4.34,BR,1686614310
388,akrehamn,59.2667,5.1833,14.14,62,100,1.03,NO,1686614311
389,puerto cabezas,14.0351,-83.3888,29.98,79,75,3.09,NI,1686614311
390,rio preto da eva,-2.6994,-59.6997,24.18,95,50,1.18,BR,1686614311
391,mar del plata,-38.0023,-57.5575,7.83,91,20,3.09,AR,1686614239
392,tual,-5.6667,132.75,26.82,83,99,10.07,ID,1686614312
393,klyuchi,52.2667,79.1667,15.45,84,66,4.34,RU,1686614312
394,abepura,-2.6333,140.5833,27.45,78,40,0.0,ID,1686614313
395,kill devil hills,36.0307,-75.676,26.0,93,40,9.26,US,1686614243
396,naze,28.3667,129.4833,22.51,96,90,5.7,JP,1686614313
397,sarangani,5.4033,125.4636,28.56,72,86,3.1,PH,1686614313
398,aqaba,29.5267,35.0078,28.92,39,0,3.6,JO,1686614314
399,susuman,62.7833,148.1667,18.48,59,100,1.09,RU,1686614314
400,tumayr,25.7039,45.868,31.23,16,1,4.38,SA,1686614314
401,novooleksiyivka,46.2269,34.6428,18.44,90,46,5.07,UA,1686614315
402,aginskoye,51.1,114.53,25.35,37,68,2.84,RU,1686614315
403,vurnary,55.4904,46.9648,5.55,85,1,3.49,RU,1686614315
404,benguela,-12.5763,13.4055,18.98,87,20,0.83,AO,1686614315
405,arkhangel'sk,64.5401,40.5433,13.84,53,95,4.21,RU,1686614316
406,cartagena del chaira,1.3349,-74.8429,22.98,96,53,1.02,CO,1686614316
407,calvinia,-31.4707,19.776,5.98,95,71,4.68,ZA,1686614316
408,christchurch,-43.5333,172.6333,11.9,81,75,3.09,NZ,1686614317
409,torres,-29.3353,-49.7269,9.9,72,32,5.23,BR,1686614053
410,shache,38.4167,77.2406,25.17,17,91,2.33,CN,1686614317
411,listowel,52.4464,-9.485,16.84,95,68,1.46,IE,1686614317
412,kununurra,-15.7667,128.7333,22.99,60,71,0.0,AU,1686614318
413,mount pearl,47.5166,-52.7813,7.3,92,100,6.69,CA,1686614247
414,lospalos,-8.5186,127.0025,23.67,76,65,4.91,TL,1686614318
415,camana,-16.6228,-72.7111,17.73,82,86,4.56,PE,1686614318
416,sibay,52.7181,58.6658,9.68,80,100,5.08,RU,1686614319
417,cuyamel,15.6667,-88.2,35.01,77,65,3.19,HN,1686614319
418,ambalangoda,6.2355,80.0538,27.17,83,100,5.16,LK,1686614319
419,tolanaro,-25.0319,46.9987,22.04,88,20,2.06,MG,1686614319
420,manbij,36.5281,37.9549,18.81,75,2,5.67,SY,1686614320
421,kuqa,41.7278,82.9364,26.91,27,33,3.05,CN,1686614320
422,nar'yan-mar,67.6713,53.087,7.12,87,70,4.44,RU,1686614320
423,ust-tsilma,65.441,52.1498,11.49,88,93,2.6,RU,1686614321
424,adrar,20.5022,-10.0711,29.7,18,39,5.34,MR,1686614321
425,vilyuysk,63.7553,121.6247,11.9,40,0,4.92,RU,1686614321
426,as sulayyil,20.4607,45.5779,34.14,20,99,5.87,SA,1686614321
427,sao joao da barra,-21.6403,-41.0511,23.05,86,49,2.56,BR,1686614322
428,kingston,17.997,-76.7936,30.53,67,20,8.23,JM,1686614033
429,katabu,-4.9333,122.5167,25.02,91,100,1.5,ID,1686614322
430,bestobe,52.4994,73.0975,14.23,57,30,2.41,KZ,1686614322
431,bhamo,24.2667,97.2333,24.14,98,99,0.48,MM,1686614323
432,qusmuryn,52.4503,64.6311,10.37,72,96,7.84,KZ,1686614323
433,ballesteros,18.4126,121.5152,25.75,88,100,3.99,PH,1686614323
434,lorengau,-2.0226,147.2712,29.48,75,27,4.93,PG,1686614323
435,sudbury,46.49,-80.99,15.59,94,100,1.34,CA,1686614080
436,rongelap,11.1635,166.8941,27.8,80,56,7.87,MH,1686614324
437,bardai,11.65,7.2333,23.41,81,71,4.39,NG,1686614324
438,caraballeda,10.6112,-66.8522,27.04,78,52,6.17,VE,1686614324
439,mando,10.7167,6.5667,23.23,83,91,0.88,NG,1686614325
440,north platte,41.1239,-100.7654,23.4,38,0,3.13,US,1686614325
441,al mijlad,11.0333,27.7333,31.19,47,40,3.95,SD,1686614325
442,longgang,37.6508,120.3286,20.02,68,27,3.39,CN,1686614325
443,taoudenni,22.6783,-3.9836,35.16,10,10,4.29,ML,1686614326
444,shakawe,-18.3667,21.85,12.02,29,5,2.93,BW,1686614326
445,aromashevo,56.8602,68.6375,6.81,75,76,1.95,RU,1686614326
446,jinka,5.65,36.65,17.09,85,95,0.95,ET,1686614327
447,vila velha,-20.3297,-40.2925,23.97,88,0,5.66,BR,1686614327
448,juan griego,11.0817,-63.9655,28.07,89,70,5.66,VE,1686614327
449,alice springs,-23.7,133.8833,12.9,50,1,3.6,AU,1686614109
450,amahai,-3.3333,128.9167,27.22,85,96,1.83,ID,1686614328
451,suva,-18.1416,178.4415,23.71,88,75,1.54,FJ,1686614257
452,tieli,46.95,128.05,20.25,69,12,0.84,CN,1686614328
453,monte argentario,42.4345,11.1195,18.89,81,68,1.79,IT,1686614328
454,dryden,49.7833,-92.7503,26.16,27,0,1.03,CA,1686614329
455,paulden,34.8856,-112.4682,25.25,26,31,2.24,US,1686614329
456,mogok,22.9167,96.5,19.93,94,80,1.11,MM,1686614329
457,sokoni,-6.4333,39.55,25.98,69,1,6.46,TZ,1686614329
458,nguigmi,14.2495,13.1092,30.02,56,0,3.11,NE,1686614330
459,ghanzi,-21.5667,21.7833,8.32,65,5,4.38,BW,1686614330
460,senatobia,34.6176,-89.9687,24.87,78,99,1.47,US,1686614330
461,maracaibo,10.6317,-71.6406,28.54,74,39,5.32,VE,1686614331
462,tura,25.5198,90.2201,23.52,95,9,1.81,IN,1686614331
463,mahibadhoo,3.7833,72.9667,28.71,76,65,6.56,MV,1686614331
464,nyurba,63.2842,118.3319,12.3,41,36,2.43,RU,1686614331
465,ghadamis,30.1337,9.5007,29.63,23,0,5.93,LY,1686614332
466,aur,8.1499,171.1687,28.3,78,98,8.6,MH,1686614077
467,nuuk,64.1835,-51.7216,0.67,100,100,2.42,GL,1686614332
468,ourem,39.6417,-8.5919,18.11,85,48,3.73,PT,1686614333
469,ouargla,31.9493,5.325,34.04,17,0,4.63,DZ,1686614333
470,merizo village,13.2658,144.6691,28.88,81,39,7.47,GU,1686614333
471,chivhu,-19.0211,30.8922,10.87,46,3,2.35,ZW,1686614334
472,quellon,-43.1167,-73.6167,3.14,93,0,1.03,CL,1686614334
473,knyaze-volkonskoye,48.4642,135.4567,19.19,68,17,2.63,RU,1686614334
474,svetlyy,54.675,20.1347,14.03,80,100,3.43,RU,1686614162
475,marsa alam,25.0757,34.8918,30.01,41,0,1.79,EG,1686614335
476,usinsk,65.9939,57.5281,6.03,89,100,7.38,RU,1686614335
477,nagaur,27.2,73.7333,31.57,54,3,6.58,IN,1686614335
478,arteche,12.2645,125.4048,28.95,72,87,2.57,PH,1686614335
479,ishikawa,26.4233,127.8214,28.18,100,75,4.12,JP,1686614336
480,dudinka,69.4058,86.1778,7.57,76,92,2.78,RU,1686614336
481,huarmey,-10.0681,-78.1522,21.67,78,6,5.94,PE,1686614336
482,jiuquan,39.7432,98.5174,22.43,20,0,0.72,CN,1686614337
483,qarauyl,48.9451,79.255,14.66,47,0,2.95,KZ,1686614337
484,bloemfontein,-29.1211,26.214,4.71,81,48,2.06,ZA,1686614218
485,kandava,57.0409,22.7747,9.99,65,60,1.71,LV,1686614337
486,crane,31.3974,-102.3501,37.64,9,0,8.29,US,1686614337
487,kaka,37.3482,59.6143,27.36,18,2,1.58,TM,1686614338
488,arendal,58.4615,8.7725,7.89,42,29,1.29,NO,1686614338
489,dawson creek,55.7666,-120.2362,24.8,31,20,5.66,CA,1686614338
490,puerto deseado,-47.7503,-65.8938,4.28,64,79,5.36,AR,1686614339
491,bela,25.9333,81.9833,35.05,29,39,3.45,IN,1686614339
492,bayanhongor,46.7167,100.1167,16.69,39,92,0.59,MN,1686614339
493,higuera de zaragoza,25.95,-109.2833,30.07,39,74,5.81,MX,1686614339
494,conception bay south,47.4999,-52.9981,7.63,90,100,5.63,CA,1686614340
495,san patricio,28.017,-97.5169,32.32,70,22,7.12,US,1686614340
496,suntar,62.1444,117.6319,12.58,40,2,2.53,RU,1686614340
497,el porvenir,13.7617,-87.3458,30.63,85,97,0.57,HN,1686614341
498,saldanha,-33.0117,17.9442,13.03,80,85,7.13,ZA,1686614341
499,alaghsas,17.0187,8.0168,31.98,35,70,2.8,NE,1686614341
500,chegdomyn,51.1167,133.0167,21.43,53,32,1.33,RU,1686614342
501,brak,27.5496,14.2714,27.78,30,0,5.16,LY,1686614342
502,guerrero negro,27.9769,-114.0611,19.67,62,1,9.23,MX,1686614100
503,chernyshevsk,52.5243,117.0174,19.43,63,100,3.18,RU,1686614342
504,veraval,20.9,70.3667,28.94,85,100,13.43,IN,1686614343
505,tarauaca,-8.1614,-70.7656,23.28,97,29,0.15,BR,1686614343
506,ube,33.9431,131.2511,21.99,94,75,4.12,JP,1686614343
507,mournies,35.4764,24.0092,20.46,79,43,1.5,GR,1686614343
508,kuanda,56.3161,116.0806,12.32,62,39,2.07,RU,1686614344
509,vuktyl,63.8567,57.3094,8.08,82,99,3.27,RU,1686614344
510,taro,-8.3862,115.28,23.0,90,89,1.49,ID,1686614344
511,dazhou,31.2159,107.5009,22.72,79,62,1.02,CN,1686614344
512,kuttampuzha,10.1511,76.7339,23.64,92,96,1.17,IN,1686614345
513,murun-kuren,49.6342,100.1625,17.17,78,85,3.29,MN,1686614345
514,cam ranh,11.9214,109.1591,28.98,70,20,3.6,VN,1686614345
515,rapid city,44.0805,-103.231,22.94,55,75,4.47,US,1686614345
516,geraldton,-28.7667,114.6,8.23,87,0,6.17,AU,1686614114
517,anakapalle,17.6833,83.0167,29.97,58,61,2.17,IN,1686614346
518,qarazhal,48.0078,70.7903,18.24,36,8,4.04,KZ,1686614346
519,sandnessjoen,66.0217,12.6316,10.29,96,79,2.24,NO,1686614346
520,sinan,34.8262,126.1086,22.06,77,76,2.43,KR,1686614347
521,cozumel,20.5083,-86.9458,30.53,86,75,2.24,MX,1686614347
522,moia,41.8101,2.0958,19.78,82,97,1.57,ES,1686614347
523,yoloten,37.2989,62.3597,25.79,21,0,1.74,TM,1686614347
524,chui,-33.6971,-53.4616,8.75,71,40,3.75,UY,1686614348
525,peniche,39.3558,-9.3811,18.49,89,39,7.29,PT,1686614348
526,kiama,-34.6833,150.8667,18.1,70,29,2.16,AU,1686614269
527,yuxia,34.0615,108.6291,20.34,47,8,1.1,CN,1686614349
528,wynyard,-41.0,145.7167,11.66,92,100,5.52,AU,1686614349
529,villefontaine,45.6125,5.1456,18.16,88,0,0.0,FR,1686614349
530,neelankarai,12.9455,80.2575,30.02,79,40,3.6,IN,1686614349
531,pauini,-7.7136,-66.9764,23.39,97,31,0.34,BR,1686614063
532,kyzyl-mazhalyk,51.1333,90.6,13.06,64,2,0.1,RU,1686614350
533,plastun,44.7561,136.2939,12.28,97,100,2.18,RU,1686614350
534,aflou,34.1128,2.1023,20.28,53,33,3.58,DZ,1686614350
535,sinop,41.7711,34.8709,14.58,92,91,0.77,TR,1686614351
536,dalandzadgad,43.5708,104.425,22.27,23,1,5.1,MN,1686614351
537,birobidzhan,48.8,132.95,18.73,67,13,2.15,RU,1686614351
538,vernon,50.2581,-119.2691,34.61,24,11,1.54,CA,1686614318
539,okhotsk,59.3833,143.3,8.28,87,84,4.98,RU,1686614352
540,mangrol,21.1167,70.1167,28.95,84,100,14.18,IN,1686614352
541,lubango,-14.9172,13.4925,14.92,44,9,2.57,AO,1686614299
542,melekeok village,7.4957,134.6367,27.11,83,99,2.97,PW,1686614353
543,meulaboh,4.1363,96.1285,24.81,86,88,1.81,ID,1686614353
544,isulan,6.6294,124.605,26.7,86,58,1.12,PH,1686614353
545,cidreira,-30.1811,-50.2056,9.7,65,88,4.08,BR,1686614353
546,port augusta,-32.5,137.7667,13.56,67,2,6.19,AU,1686614283
547,hilongos,10.3744,124.7497,27.25,72,74,1.85,PH,1686614354
548,ermoupolis,37.4423,24.9425,22.16,68,23,3.09,GR,1686614354
549,kaga bandoro,6.9896,19.1874,22.0,92,42,1.31,CF,1686614354
550,nola,40.922,14.5329,21.46,94,39,0.97,IT,1686614355
551,chernyshevskiy,63.0128,112.4714,13.01,38,0,0.79,RU,1686614355
552,gereida,11.2811,25.1414,31.53,42,60,1.78,SD,1686614355
553,ambovombe,-25.1667,46.0833,18.05,93,15,3.26,MG,1686614355
554,kargasok,59.0556,80.8572,8.15,67,25,5.26,RU,1686614356
555,mount isa,-20.7333,139.5,20.87,37,40,2.57,AU,1686614356
556,oakdale,44.963,-92.9649,26.65,30,20,6.69,US,1686614356
557,lahad datu,5.0268,118.327,27.02,85,18,0.8,MY,1686614357
558,zhaoyuan,37.3592,120.3964,22.9,47,45,3.28,CN,1686614357
559,howard springs,-12.497,131.047,23.79,39,84,4.08,AU,1686614357
560,onguday,50.75,86.15,10.39,78,1,0.91,RU,1686614357
561,shaowu,27.3409,117.4831,23.86,86,100,0.69,CN,1686614358
562,nangomba,-10.9,38.5,17.92,68,12,1.45,TZ,1686614358
563,saint-affrique,43.9558,2.8892,16.55,93,72,0.38,FR,1686614358
564,hammerfest,70.6634,23.6821,6.25,87,100,10.29,NO,1686614358
565,argo,37.6333,22.7333,18.21,77,81,1.28,GR,1686614359
566,popondetta,-8.7537,148.2534,30.01,63,54,1.01,PG,1686614359
567,karak city,31.1637,35.762,18.28,58,0,3.58,JO,1686614359
568,pesqueira,-8.3578,-36.6964,19.06,98,12,2.67,BR,1686614359
569,al muwayh,22.4333,41.7583,26.64,25,30,5.64,SA,1686614360
570,soe,-9.8607,124.284,20.79,64,57,2.9,ID,1686614360
571,ponthierry,48.5337,2.5442,20.61,77,0,3.09,FR,1686614360
